City_ID,City,Country,Max Temp,Current Description,Lat,Lng,Hotel Name
0,Esperance,AU,58.06,scattered clouds,-33.8667,121.9,Hospitality Esperance
2,Mingguang,CN,68.58,overcast clouds,32.7802,117.9638,Yonghao Hotel
4,Debre Tabor,ET,74.66,overcast clouds,11.85,38.0167,Bahirdar
5,Castro,BR,68.27,clear sky,-24.7911,-50.0119,CHACARA BAILLY
6,Flinders,AU,60.39,scattered clouds,-34.5833,150.8552,Shellharbour Resort & Conference Centre
10,Tuy Hoa,VN,79.65,broken clouds,13.0833,109.3,CenDeluxe Hotel Tuy Hoa
11,Sola,VU,80.78,scattered clouds,-13.8833,167.55,Leumerus Bungalows
12,Avarua,CK,71.65,broken clouds,-21.2078,-159.775,Paradise Inn
15,Half Moon Bay,US,58.03,mist,37.4636,-122.4286,"The Ritz-Carlton, Half Moon Bay"
16,Bredasdorp,ZA,64.04,broken clouds,-34.5322,20.0403,Bredasdorp Country Manor
19,Gornyy,RU,61.12,clear sky,55.1153,83.9059,Gostinyy Dvor
20,Pundaguitan,PH,79.66,overcast clouds,6.3711,126.1689,Leonardo Family Beach House 1
26,Berndorf,AT,77.85,broken clouds,47.9457,16.1097,Hotel Kaiservilla
28,Kokkola,FI,56.03,light rain,63.8385,23.1307,Hotel Kokkola
29,Busselton,AU,56.14,clear sky,-33.65,115.3333,Observatory Guest House
30,Santa Maria Da Vitoria,BR,82.02,scattered clouds,-13.3947,-44.1886,Pousada Rio Current
34,Clarence Town,AU,59.81,clear sky,-32.5833,151.7833,River Downs Cottage
35,Hilo,US,76.28,overcast clouds,19.7297,-155.09,Hilo Hawaiian Hotel
37,Monrovia,LR,82.51,overcast clouds,6.3005,-10.7969,Sunset Inn
40,Rikitea,PF,76.91,light rain,-23.1203,-134.9692,People ThankYou
42,Marsa Matruh,EG,79,clear sky,31.3525,27.2453,Beau Site
43,Torbay,CA,57.27,few clouds,47.6666,-52.7314,Gallows Cove
44,Cidreira,BR,64.76,overcast clouds,-30.1811,-50.2056,Hotel Castelo
46,Tura,IN,73.8,few clouds,25.5198,90.2201,Hotel RIKMAN Continental
47,Hermanus,ZA,66.79,few clouds,-34.4187,19.2345,Misty Waves Boutique Hotel
53,Nakamura,JP,64.11,light rain,32.9833,132.9333,Hotel Crown Hills Nakamura
54,Butaritari,KI,81.12,broken clouds,3.0707,172.7902,Isles Sunset Lodge
55,Saint-Philippe,RE,78.39,scattered clouds,-21.3585,55.7679,"Chambres d'hôte ""La Trinité"""
56,Puerto Ayora,EC,72.55,broken clouds,-0.7393,-90.3518,Finch Bay Galapagos Hotel
58,Arraial Do Cabo,BR,76.96,few clouds,-22.9661,-42.0278,Pousada Porto Praia
60,Ayagoz,KZ,68,overcast clouds,47.9714,80.4392,ХАН
61,Son Tay,VN,84.13,overcast clouds,21.1378,105.505,Khách Sạn Đông Thành
64,Ugoofaaru,MV,82.65,overcast clouds,5.6667,73,Ungoofaaru Inn
65,East London,ZA,65.34,scattered clouds,-33.0153,27.9116,Tu Casa
67,Cape Town,ZA,68.11,light rain,-33.9258,18.4232,Southern Sun Waterfront Cape Town
69,Hobart,AU,55.26,few clouds,-42.8794,147.3294,St Ives Hobart Accommodation Tasmania
70,Pangody,RU,59.25,overcast clouds,65.85,74.4859,Elizaveta Shevchuk's House
71,Chico,US,71.69,clear sky,39.7285,-121.8375,Quality Inn Near Chico State
72,Cairns,AU,70.07,scattered clouds,-16.9167,145.7667,Mantra Trilogy Cairns
73,Ribeira Grande,PT,66.6,scattered clouds,38.5167,-28.7,Quinta da Meia Eira
74,Isangel,VU,74.55,clear sky,-19.55,169.2667,Tanna Lodge
77,Kieta,PG,78.51,light rain,-6.2167,155.6333,Uruna Bay Retreat
81,Daru,PG,79.23,broken clouds,-9.0763,143.2092,Daru Lodge
84,Hithadhoo,MV,84.2,overcast clouds,-0.6,73.0833,Scoop Guest House
86,Presidencia Roque Saenz Pena,AR,57.79,overcast clouds,-26.7852,-60.4388,Hotel Gualok
89,Vaini,TO,75.36,broken clouds,-21.2,-175.2,Keleti Beach Resort
90,Zonguldak,TR,74.25,clear sky,41.25,31.8333,Yazioren Koyu Muhtarligi
91,Kupang,ID,79.59,broken clouds,-10.1667,123.5833,Hotel On The Rock by Prasanthi
92,Sistranda,NO,55.36,broken clouds,63.7256,8.834,Hotell Frøya
93,Solnechnyy,RU,56.12,overcast clouds,50.7214,136.6319,Hotel complex Pastoral
94,Pathein,MM,80.56,heavy intensity rain,16.7833,94.7333,Pathein Hotel
96,Santo Tomas,PH,80.49,overcast clouds,14.1079,121.1414,Microtel by Wyndham Batangas
98,Ballina,AU,57.78,light rain,-28.8667,153.5667,Ramada Hotel & Suites by Wyndham Ballina Byron
99,Kapaa,US,71.58,few clouds,22.0752,-159.319,Sheraton Kauai Coconut Beach Resort
110,Saint-Pierre,RE,78.48,clear sky,-21.3393,55.4781,Alize Plage
111,Yeppoon,AU,64.18,clear sky,-23.1333,150.7333,Villa Mar Colina
112,Tateyama,JP,67.71,heavy intensity rain,34.9833,139.8667,Tateyama Seaside Hotel
113,Grand Gaube,MU,79.2,clear sky,-20.0064,57.6608,Veranda Paul et Virginie Hotel & Spa
115,Portland,US,59.05,broken clouds,45.5234,-122.6762,Embassy Suites by Hilton Portland Downtown
116,Bambous Virieux,MU,79.05,few clouds,-20.3428,57.7575,Casa Tia Villa
118,Bengkulu,ID,78.44,broken clouds,-3.8004,102.2655,Grage Hotel Bengkulu
120,Beira,MZ,80.69,clear sky,-19.8436,34.8389,Beira Terrace Hotel
122,Amqui,CA,57.6,overcast clouds,48.4638,-67.4313,Hôtel Sélectôtel Amqui
123,Hongjiang,CN,66.42,overcast clouds,27.11,109.9956,洪江大酒店
124,Saint George,US,66.79,clear sky,37.1041,-113.5841,Best Western Plus Abbey Inn
125,Catamarca,AR,61.59,overcast clouds,-28.4696,-65.7852,Amerian Catamarca Park Hotel
126,Port Alfred,ZA,60.19,light rain,-33.5906,26.891,The Halyards Hotel
127,Algiers,DZ,67.03,light rain,36.7525,3.042,Sofitel Algiers Hamma Garden
128,Vila Franca Do Campo,PT,64.81,overcast clouds,37.7167,-25.4333,Pestana Bahia Praia
132,Champerico,GT,77.54,overcast clouds,14.3,-91.9167,"Hotel y restaurante ""El Diamante"""
134,Jamestown,US,68.02,overcast clouds,42.097,-79.2353,Hampton Inn & Suites Jamestown
139,Carnarvon,AU,73.17,overcast clouds,-24.8667,113.6333,Hospitality Carnarvon
140,Atherton,GB,62.29,broken clouds,53.5237,-2.4935,The Mercury Motel
141,Trinidad,BO,73.38,broken clouds,-14.8333,-64.9,Hotel Piesta
142,Kavieng,PG,81,overcast clouds,-2.5744,150.7967,Nusa Island Retreat
143,Lethem,GY,84.4,light rain,3.3803,-59.7968,Savannah Inn
144,Bubaque,GW,79.27,light rain,11.2833,-15.8333,"Casa Dora, Bubaque"
145,Lorengau,PG,79.95,overcast clouds,-2.0226,147.2712,Lorengau Harbourside Hotel
146,Joshimath,IN,65.89,overcast clouds,30.5667,79.5667,Shivalik Camps & Resort
147,Saldanha,ZA,69.85,scattered clouds,-33.0117,17.9442,Blue Bay Lodge
149,Nizhniy Baskunchak,RU,66.13,overcast clouds,48.2198,46.8311,Arman hotel
150,Georgetown,MY,82.35,thunderstorm,5.4112,100.3354,Cititel Penang
152,Broken Hill,AU,56.89,few clouds,-31.95,141.4333,Royal Exchange Hotel
154,George,ZA,62.15,scattered clouds,-33.963,22.4617,Protea Hotel by Marriott George King George
155,Indramayu,ID,78.46,overcast clouds,-6.3264,108.32,Grand Trisula Hotel
158,Puerto Del Rosario,ES,71.35,few clouds,28.5004,-13.8627,Hotel JM Puerto del Rosario
159,Muroto,JP,66.81,light rain,33.2833,134.15,Oota Ryokan
160,Kazachinskoye,RU,58.46,broken clouds,57.6953,93.2761,"Tayga, Gostinitsa"
163,Toba,JP,66.2,heavy intensity rain,34.4833,136.85,ホテル アルティア鳥羽
165,Marawi,PH,68.76,overcast clouds,7.9986,124.2928,Derogongan Residence
167,San Patricio,US,81.88,clear sky,28.017,-97.5169,"Motel 6 Sinton, TX"
168,Grand-Lahou,CI,81.82,light rain,5.1367,-5.0242,Hotel Beatitude de Grand Lahou
169,Santa Marta De Tormes,ES,75.22,clear sky,40.9506,-5.6272,Hotel Alameda Palace
170,Esmeralda,CU,83.44,scattered clouds,21.8525,-78.1169,Centro de Pioneros Exploradores
171,Gladzor,AM,62.96,clear sky,39.7812,45.3504,Hotel Arpa
176,Port Elizabeth,ZA,62.89,scattered clouds,-33.918,25.5701,39 On Nile Guest House
179,Naze,JP,68.92,light rain,28.3667,129.4833,Shishime Hotel
180,Payo,ID,74.79,overcast clouds,-3.7508,103.6372,Mess keban agung
181,Gacko,BA,74.34,overcast clouds,43.1672,18.5353,Hotel Metohija
182,Souillac,MU,79.18,few clouds,-20.5167,57.5167,Shanti Maurice Resort & Spa
183,Zhanakorgan,KZ,82.13,clear sky,43.9098,67.2495,"""Ақпалас"" қонақ үйі"
185,Uvira,CD,79,light rain,-3.4067,29.1458,Hotel Suzana
186,Cayenne,GF,84.24,few clouds,4.9333,-52.3333,Hôtel Le Dronmi
188,Victoria,HK,83.17,overcast clouds,22.2855,114.1577,Mini Central
191,Marigot,MF,84.74,few clouds,18.0667,-63.0833,"Sonesta Maho Beach Resort, Casino & Spa"
192,Plettenberg Bay,ZA,61.92,light rain,-34.0527,23.3716,Thanda Vista B&B
193,Mocuba,MZ,77.95,clear sky,-16.8392,36.9856,Phama Lodge
194,Tomatlan,MX,75.78,clear sky,19.9333,-105.25,El Salvial
195,Prata,BR,76.48,few clouds,-19.3072,-48.9242,Hotel Pontal Aluga-se Quitinetes e suítes mensalmente
196,Tual,ID,83.23,overcast clouds,-5.6667,132.75,Grand Vilia Hotel
200,Shimanovsk,RU,60.64,clear sky,52,127.7,Гостиница Домашняя
205,Horsham,GB,67.26,broken clouds,51.064,-0.3272,Springfields Hotel
206,Taonan,CN,58.66,overcast clouds,45.3333,122.7833,Makro Hotel
208,Burnie,AU,56.95,broken clouds,-41.0667,145.9167,Beachfront Voyager Motor Inn
209,Jabinyanah,TN,84,overcast clouds,35.035,10.9081,maison belmabrouk
211,Shrewsbury,GB,64.62,broken clouds,52.7101,-2.7521,Prince Rupert Hotel
212,Namatanai,PG,79.23,overcast clouds,-3.6667,152.4333,Seagulls Inn Namatani
218,Biak,ID,77.76,overcast clouds,-0.9131,122.8766,Penginapan Kim
219,Balta,UA,70.09,overcast clouds,47.9355,29.6198,Bryhantyna Kmp
220,Cabra,ES,80.01,clear sky,37.4725,-4.4421,MS Fuente Las Piedras
221,Brockville,CA,68.13,overcast clouds,44.5834,-75.6826,"Holiday Inn Express & Suites Brockville, an IHG Hotel"
222,Bathsheba,BB,83.01,scattered clouds,13.2167,-59.5167,Atlantis Hotel
224,Alekseyevskoye,RU,55.17,broken clouds,55.3071,50.1135,"Motel' ""Kurlyanka"""
226,Aguimes,ES,72.23,few clouds,27.9054,-15.4461,Hotel Villa de Aguimes
227,Sao Joao Da Barra,BR,73.49,broken clouds,-21.6403,-41.0511,Pousada Porto De Canoas
230,Roald,NO,56.08,scattered clouds,62.5833,6.1333,Flem Cabins
233,Indianola,US,55.89,overcast clouds,41.3581,-93.5574,Quality Inn Indianola
237,Haverfordwest,GB,59.05,overcast clouds,51.8017,-4.9691,Coastal Cottages of Pembrokeshire
238,Hasaki,JP,68.4,moderate rain,35.7333,140.8333,Inubosaki Kanko Hotel
240,Port Macquarie,AU,55.89,clear sky,-31.4333,152.9167,Rydges Port Macquarie
242,At-Bashi,KG,58.01,scattered clouds,41.1702,75.8106,Hostel At-Bashy
244,Domoni,KM,80.35,scattered clouds,-12.2569,44.5319,Al Djadid
245,Ponta Do Sol,PT,68.72,broken clouds,32.6667,-17.1,Hotel do Campo
246,Saint-Lo,FR,61.23,overcast clouds,49.1162,-1.0903,Hôtel Mercure Saint-Lô Centre
247,Richards Bay,ZA,71.19,light rain,-28.783,32.0377,BON Hotel Waterfront Richards Bay
248,Katsuura,JP,67.84,light rain,35.1333,140.3,Katsuura Hotel Mikazuki
249,Broome,US,65.86,overcast clouds,42.2506,-75.833,Chenango Valley State Park
250,Kruisfontein,ZA,59.88,light rain,-34.0033,24.7314,Oyster Bay House Rental
251,Novi,US,70.86,overcast clouds,42.4806,-83.4755,DoubleTree by Hilton Hotel Detroit - Novi
252,Esperanza,DO,81.3,clear sky,19.5847,-70.9849,Cabañas Bernard - Alojamientos Turísticos
254,Chuy,UY,57.65,overcast clouds,-33.6971,-53.4616,Nuevo Hotel Plaza
255,Labuhan,ID,76.87,heavy intensity rain,-6.8844,112.2051,DoubleFAG
256,Szamotuly,PL,69.31,broken clouds,52.612,16.5779,Hotel Maraton
259,Metro,ID,75.72,overcast clouds,-5.1131,105.3067,OYO 3177 Wisma Lintang
260,Gornopravdinsk,RU,77.13,broken clouds,60.05,69.9,Hostel
261,Grand-Santi,GF,81.12,scattered clouds,4.25,-54.3833,Hotel La Villa Couacou
263,Southbridge,US,66.45,overcast clouds,42.0751,-72.0334,Southbridge Hotel & Conference Center
264,Sayyan,YE,76.59,clear sky,15.1718,44.3244,ملاطف ابوحورية
265,Eganville,CA,56.52,light rain,45.5334,-77.0994,Egan Inn
267,Atuona,PF,78.03,few clouds,-9.8,-139.0333,Villa Enata
268,Mugumu,TZ,71.29,light rain,-1.85,34.7,Lemala Mara
270,Belyy Yar,RU,73.29,clear sky,53.6039,91.3903,Pasportnyy Stol
271,Quirinopolis,BR,75.9,overcast clouds,-18.4483,-50.4517,Rota Hotéis - Quirinópolis GO
275,Barranca,PE,64.83,overcast clouds,-10.75,-77.7667,El Olivar Hospedaje
276,Tabou,CI,82.98,broken clouds,4.423,-7.3528,hotêl doufoulougou
278,Cap Malheureux,MU,76.46,clear sky,-19.9842,57.6142,Pereybere Hotel & Spa
279,Bethel,US,63.46,clear sky,41.3712,-73.414,Courtyard by Marriott Danbury
280,Dingle,PH,79.61,overcast clouds,10.9995,122.6711,SEGAYA PROPERTY
282,Bandarbeyla,SO,83.35,broken clouds,9.4942,50.8122,JABIR HOTEL
286,Kamaishi,JP,60.28,moderate rain,39.2667,141.8833,Hotel Route Inn Kamaishi
288,Chipinge,ZW,74.62,clear sky,-20.1883,32.6236,Chipinge Breeze Lodge
289,Geraldton,AU,59.41,clear sky,-28.7667,114.6,Broadwater Mariner Resort
291,Yamada,JP,59.11,light rain,39.4667,141.95,Iroha-ya Inn
292,Shu,KZ,83.26,clear sky,43.5983,73.7614,Shyngyzkhan
293,Denpasar,ID,78.46,moderate rain,-8.65,115.2167,OYO 3156 Hotel Warta 2
295,Pryazha,RU,58.24,broken clouds,61.6926,33.6216,Guest house VIRTA
297,Skibbereen,IE,58.1,overcast clouds,51.55,-9.2667,The West Cork Hotel
300,Houma,US,75,broken clouds,29.5958,-90.7195,Courtyard by Marriott Houma
302,Polonne,UA,64.06,broken clouds,50.1242,27.5109,Polissya
303,Ishinomaki,JP,62.82,overcast clouds,38.4167,141.3,Ishinomaki Grand Hotel
306,Hammerfest,NO,64.85,clear sky,70.6634,23.6821,Skytterhuset
307,Pingdingshan,CN,72.97,overcast clouds,33.7385,113.3012,Chengfu Hotel
308,Dickinson,US,78.75,clear sky,29.4608,-95.0513,Hampton Inn & Suites Houston/League City
312,Mahebourg,MU,79.09,few clouds,-20.4081,57.7,Shandrani Beachcomber Resort & Spa
313,Buala,SB,79.41,light rain,-8.145,159.5921,Maringe Lagoon Lodge
317,Pell City,US,71.74,overcast clouds,33.5862,-86.2861,Hampton Inn Pell City
318,Kasempa,ZM,78.35,clear sky,-13.4584,25.8338,Lolelunga Forest Reserve
321,Meulaboh,ID,80.74,overcast clouds,4.1363,96.1285,Kost Pria
323,Fontaine,FR,76.41,clear sky,45.1984,5.6827,Hôtel Institut
324,Sibu,MY,75.51,scattered clouds,2.3,111.8167,RH HOTEL (4 Star)
325,Muravlenko,RU,64.62,scattered clouds,63.7898,74.523,Hostel Rus Muravlenko
327,Maniwaki,CA,55.78,overcast clouds,46.3834,-75.966,Centre Chateau Logue
328,Alice Springs,AU,58.55,few clouds,-23.7,133.8833,Desert Palms Alice Springs
329,Caravelas,BR,79.43,clear sky,-17.7125,-39.2481,Pousada dos Navegantes
331,Itarema,BR,83.23,scattered clouds,-2.9248,-39.9167,"Sea Lounge! Bar, Club & Restaurant"
333,Pecos,US,64.87,clear sky,31.4229,-103.4932,Knights Inn & Suites Pecos Northeast
334,Pisco,PE,61.02,mist,-13.7,-76.2167,Hotel San Isidro Oficial
335,Ruteng,ID,64.11,overcast clouds,-8.6136,120.4721,Hotel FX 72
336,Ukiah,US,63.64,clear sky,39.1502,-123.2078,Hampton Inn Ukiah
337,Cockburn Town,TC,80.56,scattered clouds,21.4612,-71.1419,Osprey Beach Hotel
340,Westport,US,64.9,overcast clouds,41.1415,-73.3579,The Westport Inn
342,Novobureyskiy,RU,58.42,overcast clouds,49.798,129.8774,-
343,Lakes Entrance,AU,55.17,scattered clouds,-37.8811,147.981,The Esplanade Resort & Spa
345,Ixtapa,MX,79.23,few clouds,20.7,-105.2,hotel la terminal
347,Faanui,PF,80.8,light rain,-16.4833,-151.75,Bora-Bora Pearl Beach Resort & Spa
348,Morristown,US,69.33,mist,36.214,-83.2949,Days Inn by Wyndham Morristown
349,Rio Grande,BR,60.91,light rain,-32.035,-52.0986,Hotel Atlântico Rio Grande
350,Perigueux,FR,68.77,overcast clouds,45.1833,0.7167,Hôtel Mercure Périgueux Centre
355,Yulara,AU,62.89,broken clouds,-25.2406,130.9889,Desert Gardens Hotel - Ayers Rock Resort
356,Santa Cruz De La Palma,ES,71.74,overcast clouds,28.6835,-17.7642,H10 Taburiente Playa
358,Port Augusta,AU,55.89,clear sky,-32.5,137.7667,Majestic Oasis Apartments
360,Atbasar,KZ,72.32,clear sky,51.8,68.3333,Гостиничный Комплекс Saad
363,Salima,MW,83.25,clear sky,-13.7804,34.4587,YAMIKANI LODGE
364,Omboue,GA,79.93,overcast clouds,-1.5746,9.2618,Hotel Olako
366,Muros,ES,82.09,scattered clouds,42.7762,-9.0603,Apartment Av. Castelao
367,Gurupa,BR,81.45,broken clouds,-1.405,-51.64,Hotel Vitória
368,Constantine,DZ,60.85,light rain,36.365,6.6147,Grand Hotel Cirta
369,Littleton,US,64.78,few clouds,39.6133,-105.0166,InTown Suites Extended Stay Denver CO - Englewood
372,Rio Negrinho,BR,66.94,overcast clouds,-26.2544,-49.5183,Pousada do Cassio
373,Petauke,ZM,81.27,clear sky,-14.2426,31.3253,Kwamwanja Wanthu
375,Pesqueira,BR,76.06,broken clouds,-8.3578,-36.6964,Pousada do João
376,Lompoc,US,59.56,fog,34.6391,-120.4579,"Holiday Inn Express Lompoc, an IHG Hotel"
378,Pedernales,DO,83.73,clear sky,18.0384,-71.744,Hotel Costa Marina
379,Muisne,EC,78.21,overcast clouds,0.6,-80.0333,Quinta Samay
380,Caala,AO,76.53,clear sky,-12.8525,15.5606,Adymuzik Oficial
381,Asau,RO,69.28,broken clouds,46.4333,26.4,Casa Mika Ciobanus
382,Rognan,NO,59.14,light rain,67.0953,15.3878,Rognan Hotell
383,Samana,DO,79.02,broken clouds,19.2056,-69.3369,The Bannister - Hotel & Yacht Club
385,Port Moresby,PG,76.42,few clouds,-9.4431,147.1797,Lamana Hotel (Port Moresby)
386,Benguela,AO,77.27,clear sky,-12.5763,13.4055,Hotel Praia Morena
388,Cabo San Lucas,MX,71.51,clear sky,22.8909,-109.9124,Vista Roof Restaurant
390,Norrkoping,SE,59.99,moderate rain,58.5942,16.1826,The Lamp Hotel
391,Acapulco,MX,82.71,broken clouds,16.8634,-99.8901,HS Hotsson Smart Acapulco
392,Margate,GB,67.69,overcast clouds,51.3813,1.3862,Premier Inn Margate hotel
393,Felanitx,ES,76.96,scattered clouds,39.4696,3.1483,Petit Hotel Hostatgeria Sant Salvador
394,Sibolga,ID,78.93,overcast clouds,1.7427,98.7792,Hotel Syariah CN Darussalam
396,Laguna,US,69.94,clear sky,38.421,-121.4238,"Holiday Inn Express & Suites Elk Grove Central - Hwy 99, an IHG Hotel"
397,Shingu,JP,68.31,moderate rain,33.7333,135.9833,Shingu UI Hotel
398,Sao Filipe,CV,73.71,few clouds,14.8961,-24.4956,Hotel Xaguate
400,Itabira,BR,71.44,broken clouds,-19.6192,-43.2269,Premium Executive Hotel
401,Sorong,ID,80.85,overcast clouds,-0.8833,131.25,Waigo Splash Hotel
402,Asfi,MA,70.92,few clouds,32.2994,-9.2372,Hôtel Abda
405,Panalingaan,PH,79.92,overcast clouds,8.7842,117.4231,I Love Panalingaan View Deck
406,Olinda,BR,83.93,broken clouds,-8.0089,-34.8553,Flat Quatro Rodas Olinda
407,Makungu,TZ,70.81,scattered clouds,-8.7333,35.2833,Complex
409,San Bartolome De Tirajana,ES,64.87,few clouds,27.9248,-15.5733,Las Tirajanas
410,Honiara,SB,77.94,overcast clouds,-9.4333,159.95,Heritage Park Hotel
411,Nishihara,JP,69.85,moderate rain,26.1842,127.7558,Minshuku Agaihama
413,Beyla,GN,80.85,moderate rain,8.6833,-8.6333,DIAN SINKO
415,Antalaha,MG,76.77,clear sky,-14.9003,50.2788,Hotel Vitasoa
416,Ternate,ID,81.59,overcast clouds,0.8,127.4,Sahid Bela Ternate Hotel
417,Kudahuvadhoo,MV,83.62,scattered clouds,2.6708,72.8944,Niyama Private Islands Maldives
421,Nampula,MZ,80.55,broken clouds,-15.1165,39.2666,Ruby Backpackers
422,Kavaratti,IN,83.26,light rain,10.5669,72.642,Hotels in Lakshadweep Islands
427,Varkaus,FI,60.31,overcast clouds,62.3153,27.873,Hotel Oscar
428,Maarianhamina,AX,57.06,clear sky,60.0973,19.9348,Park Alandia Hotel
431,Goderich,CA,66.52,overcast clouds,43.7501,-81.7165,Harmony Inn
432,Tuscaloosa,US,71.38,overcast clouds,33.2098,-87.5692,Hampton Inn Tuscaloosa-University
433,Fredericton,CA,60.37,overcast clouds,45.9454,-66.6656,"Crowne Plaza Fredericton-Lord Beaverbrook, an IHG Hotel"
434,Ocos,GT,80.17,overcast clouds,14.5094,-92.1933,Auto Hotel El Soñador
437,Miri,MY,78.94,scattered clouds,4.4148,114.0089,"Mega Hotel, Miri"
440,Westonaria,ZA,73.76,clear sky,-26.3191,27.6486,Nolikha Bed & Breakfast Conference Area
443,Sitges,ES,84.7,scattered clouds,41.2351,1.8119,URH Sitges Playa
444,Dengzhou,CN,63.07,overcast clouds,37.8086,120.7508,Greentree Inn Penglai Free Harbor Business Hotel
447,Mount Isa,AU,56.97,clear sky,-20.7333,139.5,ibis Styles Mt Isa Verona
448,San Quintin,MX,61.14,clear sky,30.4833,-115.95,Don Eddie's Sport Fishing Center
450,Galveston,US,79.03,clear sky,29.3669,-94.9669,Crystal Suites
451,Mitsamiouli,KM,81.05,light rain,-11.3847,43.2844,Foyer ADM
453,Fuling,CN,67.71,overcast clouds,29.7022,107.3919,Yingbin Hostel
454,Adelaide,AU,55.42,broken clouds,-34.9333,138.6,The Chancellor on Currie
457,Lyuban,BY,64.58,scattered clouds,52.7985,28.0048,"Gostinitsa ""Oressa"""
458,Tambopata,PE,75.09,broken clouds,-12.7333,-69.1833,Enashawa Lodge
459,Kawalu,ID,71.76,overcast clouds,-7.3817,108.2082,West Jontor
460,Krasnyy Chikoy,RU,60.12,clear sky,50.3643,108.7512,Persona
462,Jonkoping,SE,56.91,few clouds,57.7814,14.1562,Scandic Portalen
463,Takoradi,GH,79.41,moderate rain,4.8845,-1.7554,Raybow International Hotel
464,Amparafaravola,MG,70.41,clear sky,-17.5833,48.2167,Aina Franco
465,Ouesso,CG,77.02,light rain,1.6136,16.0517,ABENIE Hotel
466,Port-Gentil,GA,82.36,few clouds,-0.7193,8.7815,Fengshui Residence
467,Tikhvin,RU,62.22,overcast clouds,59.6451,33.5294,"Gostinitsa ""Staryy Dom"""
469,Nanma,CN,66.42,clear sky,36.1817,118.1583,GreenTree Inn Zibo Wuyuan County Lushan Road Express Hotel
472,Lagoa,PT,61.95,overcast clouds,39.05,-27.9833,Casa Das Faias
474,Bauta,CU,78.69,few clouds,22.9828,-82.5464,El Refugio
475,Rosetown,CA,57.65,clear sky,51.5501,-108.0014,Travelodge by Wyndham Rosetown
476,Sabang,ID,84.49,broken clouds,5.8933,95.3214,Hotel Citra
477,Bako,ET,72.12,light rain,5.7833,36.5667,Goh Hotel
480,Rocha,UY,55.06,clear sky,-34.4833,-54.3333,Hotel Arrarte
481,Varzea Da Palma,BR,79.56,scattered clouds,-17.5981,-44.7308,Casa Fernandes
482,Riberalta,BO,77.2,broken clouds,-10.9833,-66.1,Hotel Colonial
483,Kepno,PL,63.21,scattered clouds,51.2784,17.9891,Gawra
485,Alexandria,EG,82.36,clear sky,31.2156,29.9553,Royal Crown Hotel
486,Japura,ID,77.18,overcast clouds,-0.3167,102.35,Rumah mbah Jamah
488,Huarmey,PE,66.02,overcast clouds,-10.0681,-78.1522,Hotel Miramar
489,Knysna,ZA,62.29,overcast clouds,-34.0363,23.0471,Protea Hotel by Marriott Knysna Quays
490,Khani,GE,69.37,clear sky,41.9563,42.9566,კურორტი ზეკარი/Resort Zekari
491,Malanje,AO,81.77,clear sky,-9.5402,16.341,Hotel Ginga
493,Kahului,US,73.85,broken clouds,20.8947,-156.47,Maui Seaside Hotel
494,Emden,DE,64.02,overcast clouds,53.3667,7.2167,Upstalsboom Parkhotel
495,Virginia Beach,US,66.24,light intensity drizzle,36.8529,-75.978,Hilton Virginia Beach Oceanfront
498,Guerrero Negro,MX,62.06,clear sky,27.9769,-114.0611,"Casa Laguna, Bed & Breakfast"
499,Thomasville,US,65.32,overcast clouds,35.8826,-80.082,Comfort Inn Thomasville I-85
500,Port Lincoln,AU,56.88,clear sky,-34.7333,135.8667,Port Lincoln Hotel
501,Sendafa,ET,78.15,overcast clouds,9.15,39.0333,german hotel
502,Panzhihua,CN,75.42,moderate rain,26.5851,101.7128,Electric Power Hotel
504,Sao Jose Da Coroa Grande,BR,79.5,broken clouds,-8.8978,-35.1478,Crôa Mares Hotel
506,Lufilufi,WS,74.98,light rain,-13.8745,-171.5986,Leuaina Beach Resort and Spa
511,Sinnamary,GF,79.99,overcast clouds,5.3833,-52.95,ALETHEIA Appartement Sinnamary
512,Ermelo,ZA,63.95,clear sky,-26.5333,29.9833,Zemira Guesthouse
514,Ewa Beach,US,74.08,clear sky,21.3156,-158.0072,Base Lodging
518,Polessk,RU,60.85,clear sky,54.862,21.1028,Vocation House
519,Barroquinha,BR,84.45,scattered clouds,-3.0189,-41.1361,Pousada barroquinha
520,Abancay,PE,60.4,scattered clouds,-13.6339,-72.8814,Siball Hotel
521,Baton Rouge,US,76.05,clear sky,30.4508,-91.1545,Hilton Baton Rouge Capitol Center
523,Shimoda,JP,67.12,overcast clouds,34.6667,138.95,Shimoda Tokyu Hotel
525,Tecoanapa,MX,82.54,overcast clouds,16.5167,-98.75,Hotel Manglares
526,Sao Desiderio,BR,83.93,scattered clouds,-12.3633,-44.9733,Pousada do Luizão
528,Tayu,ID,76.46,overcast clouds,-6.5397,111.0518,Toko pakaian bu is Tayu
531,Carrick-On-Suir,IE,64.11,overcast clouds,52.3492,-7.4131,The Carraig Hotel
532,Mabaruma,GY,80.47,broken clouds,8.2,-59.7833,Monty Brooms Guest House
533,Mairana,BO,61.43,overcast clouds,-18.1167,-63.9333,Mi Terruño
534,Yamethin,MM,81.14,scattered clouds,20.4333,96.15,အလင်းရောင် ဘက်ထရီ
535,Paragominas,BR,84.47,few clouds,-2.9667,-47.4833,INOVA
536,Sao Raimundo Nonato,BR,83.55,overcast clouds,-9.0153,-42.6994,Real Hotel
537,Acari,PE,71.83,scattered clouds,-15.4311,-74.6158,HOSPEDAJE XIMENA
539,Amarante,BR,82.11,broken clouds,-6.2411,-42.8547,Hotel Pousada Velho Monge
540,North Bend,US,55.85,clear sky,43.4065,-124.2243,Red Lion Hotel Coos Bay
542,Pimentel,PE,64.69,clear sky,-6.8367,-79.9342,Hotel Puerto del Sol
543,Bend,US,56.46,clear sky,44.0582,-121.3153,Fairfield Inn & Suites by Marriott Bend Downtown
545,Havoysund,NO,62.83,few clouds,70.9963,24.6622,Arctic View Glamping & Restaurant
547,Abilene,US,72.28,clear sky,32.4487,-99.7331,La Quinta Inn by Wyndham Abilene
548,Wilmington,US,67.91,overcast clouds,34.2257,-77.9447,"Hotel Ballast Wilmington, Tapestry Collection by Hilton"
549,Cananea,MX,68.45,clear sky,30.95,-110.3,Casas Montoya
550,Pringsewu,ID,74.71,overcast clouds,-5.3582,104.9744,Urban Style by Front One
552,Choma,ZM,75.7,clear sky,-16.8065,26.9531,Kamuboola Lodge
554,Weyburn,CA,55.62,few clouds,49.6668,-103.8511,Perfect Inns & Suites
555,Buchanan,LR,83.53,broken clouds,5.8808,-10.0467,Kamaneahn Hotel Inc
556,Ormara,PK,83.19,clear sky,25.2088,64.6357,Kenara Colony House for Rent
559,Kissidougou,GN,83.48,light rain,9.1848,-10.0999,Hôtel Mantis
560,Oriximina,BR,84.63,few clouds,-1.7656,-55.8661,Pousada Tia Amélia
563,Tefe,BR,84.31,clear sky,-3.3542,-64.7114,Aracati Hotel
564,Palmer,US,65.89,broken clouds,42.1584,-72.3287,Wedgewood Motel
565,Heilbron,ZA,65.16,clear sky,-27.2812,27.9709,Guest house
566,Bonthe,SL,81.57,moderate rain,7.5264,-12.505,Bonthe Holiday Village
567,Mastic Beach,US,65.12,clear sky,40.7668,-72.8521,Brushwood House by Smith Point Beach
568,Xining,CN,59.58,overcast clouds,36.6167,101.7667,Super Leisure Hotel
569,Medvezhyegorsk,RU,57.33,scattered clouds,62.9167,34.4667,Solnechnyy
571,Evanston,US,70.97,overcast clouds,42.0411,-87.6901,Hilton Garden Inn Chicago North Shore/Evanston
572,Manokwari,ID,79.47,overcast clouds,-0.8667,134.0833,Swiss Belhotel Manokwari
573,Catalina,US,78.96,clear sky,32.5056,-110.9211,Miraval Arizona Resort & Spa
574,Vihti,FI,57.29,light rain,60.417,24.3197,Green suite (two rooms + balcony)
575,Sangmelima,CM,78.51,light rain,2.9333,11.9833,gamestar hotel
576,Bagotville,AU,57.63,broken clouds,-28.9833,153.4167,Broadwater Sunrise Caravan Park
577,Robertson,US,72.03,moderate rain,36.5167,-86.8667,Hampton Inn Springfield
578,Dwarka,IN,82.8,clear sky,22.2394,68.9678,Hotel Narayan Avezika Comfort
580,Mayumba,GA,77.16,overcast clouds,-3.432,10.6554,LIKWALE LODGE
583,Talara,PE,68.76,clear sky,-4.5772,-81.2719,Hostal Oro Negro
584,Furth Im Wald,DE,65.68,overcast clouds,49.3097,12.84,Hotel-Gasthof-Fellner
585,Hamilton,US,69.26,light rain,39.1834,-84.5333,Six Acres Bed & Breakfast
588,Inta,RU,59.76,light rain,66.0317,60.1659,Apartments in Inta city
589,Lasa,IT,74.7,broken clouds,46.6166,10.7002,Pension Feldgärtenhof
592,Bonga,ET,71.96,light rain,7.2833,36.2333,Abelena bare and restorant
595,Olot,ES,79.75,broken clouds,42.181,2.4901,Hotel Riu Fluvià
596,Santa Rosa,PH,82.02,overcast clouds,14.3122,121.1114,Erlyn’s Sta Rosa City Home
597,Dhidhdhoo,MV,82.6,overcast clouds,6.8833,73.1,Dhidhoo beach
598,Bartica,GY,84.52,few clouds,6.4,-58.6167,Sloth Island Nature Resort
600,Abasolo,MX,70.25,overcast clouds,20.45,-101.5167,Hotel y Parque Acuático La Caldera
601,Ugep,NG,83.82,moderate rain,5.8086,8.0812,Classic Bar
603,Trofors,NO,58.87,broken clouds,65.5333,13.4063,Utpå Neset AS
606,Port Blair,IN,84.24,mist,11.6667,92.75,"Welcomhotel By ITC Hotels, Bay Island, Port Blair"
607,Saint-Francois,FR,70.68,broken clouds,46.4154,3.9054,Manoir Du Bonheur
608,Mutata,CO,78.8,light rain,7.2441,-76.4356,RESIDENCIA ZULIMA
609,Palmas,BR,84.07,clear sky,-10.2128,-48.3603,Hotel Lago da Palma
612,Sanmenxia,CN,73.53,overcast clouds,34.7747,111.1814,Pengzhou Hotel
613,Harper,LR,82.4,broken clouds,4.375,-7.7169,Screensaver
614,Bulembu,SZ,66.87,clear sky,-25.9667,31.1333,Bulembu Lodge
616,Inhambane,MZ,82.38,few clouds,-23.865,35.3833,Oceano
618,Brigantine,US,68.2,overcast clouds,39.4101,-74.3646,Legacy Vacation Resorts - Brigantine Beach
619,Timra,SE,55.08,broken clouds,62.487,17.3257,Bergefors park
620,Mendi,PG,55.98,overcast clouds,-6.1761,143.6513,Kiburu Lodge
623,Hambantota,LK,82.74,few clouds,6.1241,81.1185,Bungalow 63
624,Oshkosh,US,62.67,mist,44.0247,-88.5426,Best Western Premier Waterfront Hotel & Convention Center
627,Seoul,KR,65.59,clear sky,37.5683,126.9778,롯데호텔 서울
629,Miles City,US,56.37,clear sky,46.4083,-105.8406,FairBridge Inn & Suites Miles City
630,Telsiai,LT,55.27,overcast clouds,55.9814,22.2472,Branša
631,Tautira,PF,79.09,clear sky,-17.7333,-149.15,Pension Oaoa
635,Kununurra,AU,66.18,clear sky,-15.7667,128.7333,Hotel Kununurra
636,Zheleznodorozhnyy,RU,66.61,overcast clouds,55.7503,38.0042,Hotel Dali
637,Neiafu,TO,79.48,few clouds,-18.65,-173.9833,Mystic Sands Beachfront Accommodation
638,Tekeli,KZ,65.93,scattered clouds,44.83,78.8239,Vuslat Tekeli
639,Behshahr,IR,62.55,overcast clouds,36.6923,53.5526,Abbas Abad Hotel & Restaurant
640,Paita,PE,67.78,scattered clouds,-5.0892,-81.1144,Hotel Náutico de Paita
641,Conceicao Do Coite,BR,79.39,broken clouds,-11.5639,-39.2828,Coité Plaza Hotel
643,Payson,US,68.36,scattered clouds,40.0444,-111.7321,Quality Inn Payson I-15
645,Felipe Carrillo Puerto,MX,83.03,broken clouds,19.5833,-88.05,Hotel La Ceiba
646,Svetlogorsk,BY,64.47,scattered clouds,52.6333,29.7333,Hotel Svetlogorsk JBIK
648,Camacha,PT,65.62,scattered clouds,33.0833,-16.3333,Hotel Porto Santo & Spa
649,Mazagao,BR,82.45,broken clouds,-0.115,-51.2894,Recanto dos Ferreiras
650,San Ramon,US,58.86,broken clouds,37.7799,-121.978,San Ramon Marriott
652,Springbok,ZA,73.53,clear sky,-29.6643,17.8865,Undulata Country Lodge
654,San Antero,CO,81.05,overcast clouds,9.3741,-75.7589,Villamarina Inn chale
655,Wanning,CN,80.47,overcast clouds,18.8003,110.3967,Paradise Hotel
656,Pochutla,MX,81.82,overcast clouds,15.7432,-96.4661,Hotel Posada San Jose
658,Salym,RU,72.61,light rain,60.0625,71.4789,Gostinitsa Salym
662,Port Lavaca,US,79.29,clear sky,28.615,-96.6261,Holiday Inn Express & Suites Port Lavaca
663,Bontang,ID,78.13,overcast clouds,0.1333,117.5,KOPKAR Hotel Bintang Sintuk
667,Lambarene,GA,80.62,overcast clouds,-0.7001,10.2406,Le Refuge
668,Gisors,FR,66.69,overcast clouds,49.2818,1.7801,Hôtel Moderne
669,Saint-Andre-Avellin,CA,58.98,overcast clouds,45.7168,-75.066,Auberge Petite-Nation
670,Letlhakane,BW,84,clear sky,-21.4167,25.5833,Motswedi Hotel
673,Nantucket,US,59.09,clear sky,41.2835,-70.0995,Jared Coffin House
674,Freeport,US,65.17,clear sky,40.6576,-73.5832,The Freeport Inn and Marina
675,Mackay,AU,65.68,clear sky,-21.15,149.2,International Lodge Motel
676,Itoman,JP,70.57,light rain,26.1247,127.6694,Southern Beach Hotel & Resort Okinawa
677,Kargasok,RU,67.86,broken clouds,59.0556,80.8572,Hotel Kargasok
678,Alihe,CN,56.16,clear sky,50.5667,123.7167,Alihe Forestry Hotel
680,Epe,NG,84.52,light rain,6.5841,3.9834,MAGVILLE HOTEL
681,Kainantu,PG,61.34,overcast clouds,-6.2887,145.8655,Sylvester buku
684,Byron Bay,AU,57.7,light rain,-28.65,153.6167,Backpackers Inn
686,Vila Velha,BR,75.15,broken clouds,-20.3297,-40.2925,Hotel Vitória Palace
687,Ostersund,SE,60.62,few clouds,63.1792,14.6357,Best Western Hotel Gamla Teatern
688,Piet Retief,ZA,64.74,clear sky,-27.0071,30.8132,Arabian Nite Guest House
689,Vao,NC,73.69,overcast clouds,-22.6667,167.4833,Hotel Kou-Bugny
690,Padang,ID,78.85,overcast clouds,-0.9492,100.3543,Mercure Padang
691,Kirakira,SB,79.41,overcast clouds,-10.4544,161.9205,SanBiz Lodge
692,Nachingwea,TZ,80.08,broken clouds,-10.3833,38.7667,Makoga lodge
693,Marsh Harbour,BS,78.87,overcast clouds,26.5412,-77.0636,Abaco Beach Resort
694,Santa Maria,BR,61.9,mist,-29.6842,-53.8069,Hotel Morotin
695,Salinopolis,BR,83.43,overcast clouds,-0.6136,-47.3561,Salinas Park Resort Maçarico AP101
696,Belmonte,BR,76.6,scattered clouds,-15.8631,-38.8828,Pousada Monte Carmelo O Pão
697,Alappuzha,IN,80.19,overcast clouds,9.49,76.3264,Panoramic Sea Resort
698,Umm Lajj,SA,83.01,clear sky,25.0213,37.2685,Moon light Furnished Units
700,Pitangui,BR,74.16,clear sky,-19.6828,-44.8903,Pousada Monsenhor Vicente
701,Apache Junction,US,80.64,clear sky,33.4151,-111.5496,"Motel 6 Apache Junction, AZ"
702,Ginda,IN,66.4,overcast clouds,30.6945,78.4932,Sunil Bisht
703,Ambovombe,MG,72.75,broken clouds,-25.1667,46.0833,RELAHARA
706,Katherine,AU,68.32,broken clouds,-14.4667,132.2667,Pine Tree Motel
708,Mareeba,AU,65.44,few clouds,-17,145.4333,Trinity Plains Tourist Park
711,Tabuk,PH,77.2,overcast clouds,17.4189,121.4443,Golden Berries Hotel and Convention
712,Shelburne,CA,65.23,overcast clouds,44.0787,-80.2041,The Retreat at the Farm
713,Santa Isabel Do Rio Negro,BR,78.69,overcast clouds,-0.4139,-65.0192,Hotel GSA
714,Samarai,PG,80.71,broken clouds,-10.6167,150.6667,Nuli Sapi
720,Zharkent,KZ,72.45,overcast clouds,44.1628,80,гостиница Satti
721,Shiyan,CN,74.41,overcast clouds,32.6475,110.7781,Fenghuang Garden Holiday Hotel
722,Kuybyshevo,RU,66.7,overcast clouds,47.8123,38.9073,Мини-отель Искра
